city,county,state,country,population,lat,long,url,cases,deaths,recovered,tested,date
,DeKalb County,IN,USA,43226,41.397172,-84.998833,https://opendata.arcgis.com/datasets/d14de7e28b0448ab82eb36d6f25b1ea1_0.csv,13,1,,,2020-08-27
,Boone County,IN,USA,66999,40.051773999999995,-86.4677715,https://opendata.arcgis.com/datasets/d14de7e28b0448ab82eb36d6f25b1ea1_0.csv,1,,,,2020-03-13
,Boone County,IN,USA,66999,40.051773999999995,-86.4677715,https://opendata.arcgis.com/datasets/d14de7e28b0448ab82eb36d6f25b1ea1_0.csv,1,,,,2020-03-14
,Boone County,IN,USA,66999,40.051773999999995,-86.4677715,https://opendata.arcgis.com/datasets/d14de7e28b0448ab82eb36d6f25b1ea1_0.csv,166,18,,,2020-08-27
,Tippecanoe County,IN,USA,193048,40.388631000000004,-86.89501100000001,https://opendata.arcgis.com/datasets/d14de7e28b0448ab82eb36d6f25b1ea1_0.csv,59,2,,,2020-08-27
,Johnson County,IN,USA,156225,39.4900085,-86.101242,https://opendata.arcgis.com/datasets/d14de7e28b0448ab82eb36d6f25b1ea1_0.csv,3,,,,2020-03-13
,Johnson County,IN,USA,156225,39.4900085,-86.101242,https://opendata.arcgis.com/datasets/d14de7e28b0448ab82eb36d6f25b1ea1_0.csv,3,,,,2020-03-14
,Johnson County,IN,USA,156225,39.4900085,-86.101242,https://opendata.arcgis.com/datasets/d14de7e28b0448ab82eb36d6f25b1ea1_0.csv,456,40,,,2020-08-27
,Elkhart County,IN,USA,205560,41.598169999999996,-85.858041,https://opendata.arcgis.com/datasets/d14de7e28b0448ab82eb36d6f25b1ea1_0.csv,185,3,,,2020-08-27
,Adams County,IN,USA,35636,40.745404,-84.93797749999999,https://opendata.arcgis.com/datasets/d14de7e28b0448ab82eb36d6f25b1ea1_0.csv,1,,,,2020-03-13
,Adams County,IN,USA,35636,40.745404,-84.93797749999999,https://opendata.arcgis.com/datasets/d14de7e28b0448ab82eb36d6f25b1ea1_0.csv,1,,,,2020-03-14
,Adams County,IN,USA,35636,40.745404,-84.93797749999999,https://opendata.arcgis.com/datasets/d14de7e28b0448ab82eb36d6f25b1ea1_0.csv,7,1,,,2020-08-27
,Noble County,IN,USA,47532,41.3952975,-85.42342049999999,https://opendata.arcgis.com/datasets/d14de7e28b0448ab82eb36d6f25b1ea1_0.csv,1,,,,2020-03-13
,Noble County,IN,USA,47532,41.3952975,-85.42342049999999,https://opendata.arcgis.com/datasets/d14de7e28b0448ab82eb36d6f25b1ea1_0.csv,1,,,,2020-03-14
,Noble County,IN,USA,47532,41.3952975,-85.42342049999999,https://opendata.arcgis.com/datasets/d14de7e28b0448ab82eb36d6f25b1ea1_0.csv,45,4,,,2020-08-27
,Madison County,IN,USA,129641,40.1616875,-85.7193405,https://opendata.arcgis.com/datasets/d14de7e28b0448ab82eb36d6f25b1ea1_0.csv,351,34,,,2020-08-27
,St Joseph County,IN,USA,,42.76080525150005,-75.8409706677239,https://opendata.arcgis.com/datasets/d14de7e28b0448ab82eb36d6f25b1ea1_0.csv,1,,,,2020-03-13
,St Joseph County,IN,USA,,42.76080525150005,-75.8409706677239,https://opendata.arcgis.com/datasets/d14de7e28b0448ab82eb36d6f25b1ea1_0.csv,1,,,,2020-03-14
,St Joseph County,IN,USA,,42.76080525150005,-75.8409706677239,https://opendata.arcgis.com/datasets/d14de7e28b0448ab82eb36d6f25b1ea1_0.csv,454,10,,,2020-08-27
,Jackson County,IN,USA,44111,38.898375,-86.056745,https://opendata.arcgis.com/datasets/d14de7e28b0448ab82eb36d6f25b1ea1_0.csv,97,,,,2020-08-27
,Vander. County,IN,USA,,,,https://opendata.arcgis.com/datasets/d14de7e28b0448ab82eb36d6f25b1ea1_0.csv,96,1,,,2020-08-27
,Grant County,IN,USA,65936,40.515986999999996,-85.6545605,https://opendata.arcgis.com/datasets/d14de7e28b0448ab82eb36d6f25b1ea1_0.csv,101,4,,,2020-08-27
,Porter County,IN,USA,169594,41.465349,-87.07600400000001,https://opendata.arcgis.com/datasets/d14de7e28b0448ab82eb36d6f25b1ea1_0.csv,193,5,,,2020-08-27
,Marion County,IN,USA,954670,39.779657,-86.13272599999999,https://opendata.arcgis.com/datasets/d14de7e28b0448ab82eb36d6f25b1ea1_0.csv,2,,,,2020-03-13
,Marion County,IN,USA,954670,39.779657,-86.13272599999999,https://opendata.arcgis.com/datasets/d14de7e28b0448ab82eb36d6f25b1ea1_0.csv,3,,,,2020-03-14
,Marion County,IN,USA,954670,39.779657,-86.13272599999999,https://opendata.arcgis.com/datasets/d14de7e28b0448ab82eb36d6f25b1ea1_0.csv,4263,214,,,2020-08-27
,Hamilton County,IN,USA,330086,40.0724955,-86.052323,https://opendata.arcgis.com/datasets/d14de7e28b0448ab82eb36d6f25b1ea1_0.csv,624,41,,,2020-08-27
,Lake County,IN,USA,484411,41.4360915,-87.372815,https://opendata.arcgis.com/datasets/d14de7e28b0448ab82eb36d6f25b1ea1_0.csv,1292,57,,,2020-08-27
,Morgan County,IN,USA,70116,39.486663,-86.46872300000001,https://opendata.arcgis.com/datasets/d14de7e28b0448ab82eb36d6f25b1ea1_0.csv,124,4,,,2020-08-27
,Hendricks County,IN,USA,167009,39.762399,-86.510613,https://opendata.arcgis.com/datasets/d14de7e28b0448ab82eb36d6f25b1ea1_0.csv,2,,,,2020-03-13
,Hendricks County,IN,USA,167009,39.762399,-86.510613,https://opendata.arcgis.com/datasets/d14de7e28b0448ab82eb36d6f25b1ea1_0.csv,2,,,,2020-03-14
,Hendricks County,IN,USA,167009,39.762399,-86.510613,https://opendata.arcgis.com/datasets/d14de7e28b0448ab82eb36d6f25b1ea1_0.csv,518,20,,,2020-08-27
,LaPorte County,IN,USA,110007,41.4985245,-86.70959,https://opendata.arcgis.com/datasets/d14de7e28b0448ab82eb36d6f25b1ea1_0.csv,1,,,,2020-03-14
,LaPorte County,IN,USA,110007,41.4985245,-86.70959,https://opendata.arcgis.com/datasets/d14de7e28b0448ab82eb36d6f25b1ea1_0.csv,144,5,,,2020-08-27
,Floyd County,IN,USA,77781,38.299344000000005,-85.8968305,https://opendata.arcgis.com/datasets/d14de7e28b0448ab82eb36d6f25b1ea1_0.csv,149,9,,,2020-08-27
,Shelby County,IN,USA,44593,39.5229175,-85.7912735,https://opendata.arcgis.com/datasets/d14de7e28b0448ab82eb36d6f25b1ea1_0.csv,125,6,,,2020-08-27
,Allen County,IN,USA,375351,41.093929,-85.070744,https://opendata.arcgis.com/datasets/d14de7e28b0448ab82eb36d6f25b1ea1_0.csv,343,22,,,2020-08-27
,Tipton County,IN,USA,15128,40.311361500000004,-86.052076,https://opendata.arcgis.com/datasets/d14de7e28b0448ab82eb36d6f25b1ea1_0.csv,14,1,,,2020-08-27
,Rush County,IN,USA,16663,39.6201645,-85.465533,https://opendata.arcgis.com/datasets/d14de7e28b0448ab82eb36d6f25b1ea1_0.csv,21,1,,,2020-08-27
,Orange County,IN,USA,19489,38.541362,-86.49588800000001,https://opendata.arcgis.com/datasets/d14de7e28b0448ab82eb36d6f25b1ea1_0.csv,38,4,,,2020-08-27
,Crawford County,IN,USA,10558,38.264135499999995,-86.4664205,https://opendata.arcgis.com/datasets/d14de7e28b0448ab82eb36d6f25b1ea1_0.csv,13,,,,2020-08-27
,Owen County,IN,USA,20845,39.319545500000004,-86.84269800000001,https://opendata.arcgis.com/datasets/d14de7e28b0448ab82eb36d6f25b1ea1_0.csv,22,1,,,2020-08-27
,Fountain County,IN,USA,16351,40.159532,-87.2651005,https://opendata.arcgis.com/datasets/d14de7e28b0448ab82eb36d6f25b1ea1_0.csv,8,2,,,2020-08-27
,Decatur County,IN,USA,26794,39.292067,-85.4919175,https://opendata.arcgis.com/datasets/d14de7e28b0448ab82eb36d6f25b1ea1_0.csv,178,21,,,2020-08-27
,Fulton County,IN,USA,20092,41.0412495,-86.2069545,https://opendata.arcgis.com/datasets/d14de7e28b0448ab82eb36d6f25b1ea1_0.csv,6,,,,2020-08-27
,LaGrange County,IN,USA,39330,41.641722,-85.426917,https://opendata.arcgis.com/datasets/d14de7e28b0448ab82eb36d6f25b1ea1_0.csv,18,1,,,2020-08-27
,Knox County,IN,USA,36895,38.6611855,-87.4215765,https://opendata.arcgis.com/datasets/d14de7e28b0448ab82eb36d6f25b1ea1_0.csv,18,,,,2020-08-27
,Monroe County,IN,USA,146917,39.173286000000004,-86.50153900000001,https://opendata.arcgis.com/datasets/d14de7e28b0448ab82eb36d6f25b1ea1_0.csv,118,5,,,2020-08-27
,Cass County,IN,USA,37955,40.736143,-86.3733815,https://opendata.arcgis.com/datasets/d14de7e28b0448ab82eb36d6f25b1ea1_0.csv,138,1,,,2020-08-27
,Randolph County,IN,USA,24851,40.157236999999995,-85.011338,https://opendata.arcgis.com/datasets/d14de7e28b0448ab82eb36d6f25b1ea1_0.csv,12,2,,,2020-08-27
,Martin County,IN,USA,10217,38.700171999999995,-86.8032725,https://opendata.arcgis.com/datasets/d14de7e28b0448ab82eb36d6f25b1ea1_0.csv,6,,,,2020-08-27
,Washington County,IN,USA,27943,38.5984585,-86.078819,https://opendata.arcgis.com/datasets/d14de7e28b0448ab82eb36d6f25b1ea1_0.csv,31,,,,2020-08-27
,Parke County,IN,USA,16927,39.779033,-87.2218005,https://opendata.arcgis.com/datasets/d14de7e28b0448ab82eb36d6f25b1ea1_0.csv,9,,,,2020-08-27
,Kosciusko County,IN,USA,79344,41.239367,-85.8647395,https://opendata.arcgis.com/datasets/d14de7e28b0448ab82eb36d6f25b1ea1_0.csv,23,1,,,2020-08-27
,Wayne County,IN,USA,65936,39.8599215,-85.01602550000001,https://opendata.arcgis.com/datasets/d14de7e28b0448ab82eb36d6f25b1ea1_0.csv,30,2,,,2020-08-27
,Montgomery County,IN,USA,38346,40.039825500000006,-86.893817,https://opendata.arcgis.com/datasets/d14de7e28b0448ab82eb36d6f25b1ea1_0.csv,27,,,,2020-08-27
,Hancock County,IN,USA,76351,39.821446,-85.76510250000001,https://opendata.arcgis.com/datasets/d14de7e28b0448ab82eb36d6f25b1ea1_0.csv,151,7,,,2020-08-27
,Vigo County,IN,USA,107386,39.4335005,-87.40453099999999,https://opendata.arcgis.com/datasets/d14de7e28b0448ab82eb36d6f25b1ea1_0.csv,60,5,,,2020-08-27
,Jefferson County,IN,USA,32208,38.749990499999996,-85.4428255,https://opendata.arcgis.com/datasets/d14de7e28b0448ab82eb36d6f25b1ea1_0.csv,21,,,,2020-08-27
,Huntington County,IN,USA,36240,40.8291895,-85.48925399999999,https://opendata.arcgis.com/datasets/d14de7e28b0448ab82eb36d6f25b1ea1_0.csv,6,2,,,2020-08-27
,Harrison County,IN,USA,40350,38.190351500000006,-86.114784,https://opendata.arcgis.com/datasets/d14de7e28b0448ab82eb36d6f25b1ea1_0.csv,105,3,,,2020-08-27
,Wabash County,IN,USA,31280,40.848853500000004,-85.7925115,https://opendata.arcgis.com/datasets/d14de7e28b0448ab82eb36d6f25b1ea1_0.csv,10,1,,,2020-08-27
,Delaware County,IN,USA,114772,40.2282065,-85.3964875,https://opendata.arcgis.com/datasets/d14de7e28b0448ab82eb36d6f25b1ea1_0.csv,121,9,,,2020-08-27
,Posey County,IN,USA,25540,38.001000000000005,-87.87335350000001,https://opendata.arcgis.com/datasets/d14de7e28b0448ab82eb36d6f25b1ea1_0.csv,8,,,,2020-08-27
,Spencer County,IN,USA,20327,37.993821,-87.0179535,https://opendata.arcgis.com/datasets/d14de7e28b0448ab82eb36d6f25b1ea1_0.csv,5,,,,2020-08-27
,Ohio County,IN,USA,5844,38.9659135,-84.9850845,https://opendata.arcgis.com/datasets/d14de7e28b0448ab82eb36d6f25b1ea1_0.csv,2,,,,2020-08-27
,Carroll County,IN,USA,20127,40.5844765,-86.5738755,https://opendata.arcgis.com/datasets/d14de7e28b0448ab82eb36d6f25b1ea1_0.csv,7,1,,,2020-08-27
,Warren County,IN,USA,8263,40.3021425,-87.311793,https://opendata.arcgis.com/datasets/d14de7e28b0448ab82eb36d6f25b1ea1_0.csv,7,1,,,2020-08-27
,Franklin County,IN,USA,22736,39.397251999999995,-85.056989,https://opendata.arcgis.com/datasets/d14de7e28b0448ab82eb36d6f25b1ea1_0.csv,91,7,,,2020-08-27
,Pulaski County,IN,USA,12469,41.0411035,-86.6989025,https://opendata.arcgis.com/datasets/d14de7e28b0448ab82eb36d6f25b1ea1_0.csv,1,,,,2020-08-27
,Jay County,IN,USA,20764,40.439459,-85.0111465,https://opendata.arcgis.com/datasets/d14de7e28b0448ab82eb36d6f25b1ea1_0.csv,9,,,,2020-08-27
,Wells County,IN,USA,28206,40.742376,-85.258652,https://opendata.arcgis.com/datasets/d14de7e28b0448ab82eb36d6f25b1ea1_0.csv,1,,,,2020-03-14
,Wells County,IN,USA,28206,40.742376,-85.258652,https://opendata.arcgis.com/datasets/d14de7e28b0448ab82eb36d6f25b1ea1_0.csv,6,,,,2020-08-27
,Marshall County,IN,USA,46248,41.325298000000004,-86.2605775,https://opendata.arcgis.com/datasets/d14de7e28b0448ab82eb36d6f25b1ea1_0.csv,26,1,,,2020-08-27
,Sullivan County,IN,USA,20690,39.080525,-87.4431845,https://opendata.arcgis.com/datasets/d14de7e28b0448ab82eb36d6f25b1ea1_0.csv,10,,,,2020-08-27
,Brown County,IN,USA,15234,39.196282,-86.23083349999999,https://opendata.arcgis.com/datasets/d14de7e28b0448ab82eb36d6f25b1ea1_0.csv,14,1,,,2020-08-27
,Ripley County,IN,USA,28523,39.1115335,-85.2549985,https://opendata.arcgis.com/datasets/d14de7e28b0448ab82eb36d6f25b1ea1_0.csv,86,3,,,2020-08-27
,Henry County,IN,USA,48271,39.931831,-85.3989305,https://opendata.arcgis.com/datasets/d14de7e28b0448ab82eb36d6f25b1ea1_0.csv,29,1,,,2020-08-27
,Howard County,IN,USA,82366,40.469593,-86.1189395,https://opendata.arcgis.com/datasets/d14de7e28b0448ab82eb36d6f25b1ea1_0.csv,1,,,,2020-03-13
,Howard County,IN,USA,82366,40.469593,-86.1189395,https://opendata.arcgis.com/datasets/d14de7e28b0448ab82eb36d6f25b1ea1_0.csv,1,,,,2020-03-14
,Howard County,IN,USA,82366,40.469593,-86.1189395,https://opendata.arcgis.com/datasets/d14de7e28b0448ab82eb36d6f25b1ea1_0.csv,75,4,,,2020-08-27
,Whitley County,IN,USA,34074,41.148574999999994,-85.49717749999999,https://opendata.arcgis.com/datasets/d14de7e28b0448ab82eb36d6f25b1ea1_0.csv,16,1,,,2020-08-27
,Dearborn County,IN,USA,49568,39.1234195,-84.9759795,https://opendata.arcgis.com/datasets/d14de7e28b0448ab82eb36d6f25b1ea1_0.csv,72,5,,,2020-08-27
,Blackford County,IN,USA,11930,40.473138,-85.32408,https://opendata.arcgis.com/datasets/d14de7e28b0448ab82eb36d6f25b1ea1_0.csv,6,1,,,2020-08-27
,Scott County,IN,USA,23878,38.6948615,-85.729157,https://opendata.arcgis.com/datasets/d14de7e28b0448ab82eb36d6f25b1ea1_0.csv,27,2,,,2020-08-27
,Bartholomew County,IN,USA,82753,39.192976,-85.885058,https://opendata.arcgis.com/datasets/d14de7e28b0448ab82eb36d6f25b1ea1_0.csv,146,7,,,2020-08-27
,Jasper County,IN,USA,33370,41.011453,-87.1030475,https://opendata.arcgis.com/datasets/d14de7e28b0448ab82eb36d6f25b1ea1_0.csv,24,1,,,2020-08-27
,Union County,IN,USA,7037,39.6256065,-84.925108,https://opendata.arcgis.com/datasets/d14de7e28b0448ab82eb36d6f25b1ea1_0.csv,6,,,,2020-08-27
,Verm. County,IN,USA,,,,https://opendata.arcgis.com/datasets/d14de7e28b0448ab82eb36d6f25b1ea1_0.csv,7,,,,2020-08-27
,Benton County,IN,USA,8653,40.606315,-87.3100935,https://opendata.arcgis.com/datasets/d14de7e28b0448ab82eb36d6f25b1ea1_0.csv,4,,,,2020-08-27
,Clay County,IN,USA,26170,39.387551,-87.090359,https://opendata.arcgis.com/datasets/d14de7e28b0448ab82eb36d6f25b1ea1_0.csv,19,1,,,2020-08-27
,Lawrence County,IN,USA,45668,38.8394825,-86.47919150000001,https://opendata.arcgis.com/datasets/d14de7e28b0448ab82eb36d6f25b1ea1_0.csv,83,9,,,2020-08-27
,Clark County,IN,USA,117360,38.436953,-85.704951,https://opendata.arcgis.com/datasets/d14de7e28b0448ab82eb36d6f25b1ea1_0.csv,188,11,,,2020-08-27
,Miami County,IN,USA,35567,40.780922000000004,-86.01632649999999,https://opendata.arcgis.com/datasets/d14de7e28b0448ab82eb36d6f25b1ea1_0.csv,27,,,,2020-08-27
,Fayette County,IN,USA,23047,39.6569625,-85.1680795,https://opendata.arcgis.com/datasets/d14de7e28b0448ab82eb36d6f25b1ea1_0.csv,22,4,,,2020-08-27
,Newton County,IN,USA,14011,40.977588499999996,-87.3970095,https://opendata.arcgis.com/datasets/d14de7e28b0448ab82eb36d6f25b1ea1_0.csv,38,4,,,2020-08-27
,Perry County,IN,USA,19102,38.0538765,-86.6224235,https://opendata.arcgis.com/datasets/d14de7e28b0448ab82eb36d6f25b1ea1_0.csv,6,,,,2020-08-27
,Putnam County,IN,USA,37779,39.668384,-86.8280865,https://opendata.arcgis.com/datasets/d14de7e28b0448ab82eb36d6f25b1ea1_0.csv,53,4,,,2020-08-27
,Starke County,IN,USA,22935,41.302205,-86.6983865,https://opendata.arcgis.com/datasets/d14de7e28b0448ab82eb36d6f25b1ea1_0.csv,11,1,,,2020-08-27
,Greene County,IN,USA,32006,39.0371445,-86.961652,https://opendata.arcgis.com/datasets/d14de7e28b0448ab82eb36d6f25b1ea1_0.csv,44,4,,,2020-08-27
,Pike County,IN,USA,12410,38.390486499999994,-87.2676305,https://opendata.arcgis.com/datasets/d14de7e28b0448ab82eb36d6f25b1ea1_0.csv,1,,,,2020-08-27
,Warrick County,IN,USA,62567,38.062363000000005,-87.245218,https://opendata.arcgis.com/datasets/d14de7e28b0448ab82eb36d6f25b1ea1_0.csv,68,8,,,2020-08-27
,Daviess County,IN,USA,33147,38.6973285,-87.0858515,https://opendata.arcgis.com/datasets/d14de7e28b0448ab82eb36d6f25b1ea1_0.csv,38,6,,,2020-08-27
,Dubois County,IN,USA,42565,38.365024000000005,-86.87606650000001,https://opendata.arcgis.com/datasets/d14de7e28b0448ab82eb36d6f25b1ea1_0.csv,16,,,,2020-08-27
,Clinton County,IN,USA,32250,40.304673,-86.46908450000001,https://opendata.arcgis.com/datasets/d14de7e28b0448ab82eb36d6f25b1ea1_0.csv,20,1,,,2020-08-27
,White County,IN,USA,24133,40.737271,-86.8406485,https://opendata.arcgis.com/datasets/d14de7e28b0448ab82eb36d6f25b1ea1_0.csv,11,,,,2020-08-27
,Switzerland County,IN,USA,10717,38.8085935,-84.9938725,https://opendata.arcgis.com/datasets/d14de7e28b0448ab82eb36d6f25b1ea1_0.csv,13,,,,2020-08-27
,Steuben County,IN,USA,34586,41.6433265,-85.0007515,https://opendata.arcgis.com/datasets/d14de7e28b0448ab82eb36d6f25b1ea1_0.csv,18,1,,,2020-08-27
,Gibson County,IN,USA,33452,38.349461,-87.64698250000001,https://opendata.arcgis.com/datasets/d14de7e28b0448ab82eb36d6f25b1ea1_0.csv,5,,,,2020-08-27
,Jennings County,IN,USA,27611,39.0015625,-85.619944,https://opendata.arcgis.com/datasets/d14de7e28b0448ab82eb36d6f25b1ea1_0.csv,64,1,,,2020-08-27
,Rockingham County,NC,USA,90690,36.39209,-79.77325049999999,https://opendata.arcgis.com/datasets/969678bce431494a8f64d7faade6e5b8_0.csv,721,7,,,2020-08-27
,Guilford County,NC,USA,533670,36.078567,-79.789537,https://opendata.arcgis.com/datasets/969678bce431494a8f64d7faade6e5b8_0.csv,6518,166,,,2020-08-27
,Alamance County,NC,USA,166436,36.046625,-79.389903,https://opendata.arcgis.com/datasets/969678bce431494a8f64d7faade6e5b8_0.csv,2955,44,,,2020-08-27
,Alexander County,NC,USA,37353,35.9112,-81.173576,https://opendata.arcgis.com/datasets/969678bce431494a8f64d7faade6e5b8_0.csv,378,2,,,2020-08-27
,Randolph County,NC,USA,143351,35.713162,-79.80440999999999,https://opendata.arcgis.com/datasets/969678bce431494a8f64d7faade6e5b8_0.csv,2346,43,,,2020-08-27
,Wayne County,NC,USA,123248,35.372187,-78.0523115,https://opendata.arcgis.com/datasets/969678bce431494a8f64d7faade6e5b8_0.csv,1,,,,2020-03-14
,Wayne County,NC,USA,123248,35.372187,-78.0523115,https://opendata.arcgis.com/datasets/969678bce431494a8f64d7faade6e5b8_0.csv,2717,51,,,2020-08-27
,Ashe County,NC,USA,27109,36.414194499999994,-81.4925705,https://opendata.arcgis.com/datasets/969678bce431494a8f64d7faade6e5b8_0.csv,187,1,,,2020-08-27
,Alleghany County,NC,USA,11161,36.470187499999994,-81.128388,https://opendata.arcgis.com/datasets/969678bce431494a8f64d7faade6e5b8_0.csv,193,,,,2020-08-27
,Currituck County,NC,USA,27072,36.311232000000004,-76.0432625,https://opendata.arcgis.com/datasets/969678bce431494a8f64d7faade6e5b8_0.csv,91,,,,2020-08-27
,Camden County,NC,USA,10710,36.357271,-76.2231965,https://opendata.arcgis.com/datasets/969678bce431494a8f64d7faade6e5b8_0.csv,89,3,,,2020-08-27
,Surry County,NC,USA,71948,36.399366,-80.7073595,https://opendata.arcgis.com/datasets/969678bce431494a8f64d7faade6e5b8_0.csv,1110,15,,,2020-08-27
,Gates County,NC,USA,11573,36.424152,-76.70138,https://opendata.arcgis.com/datasets/969678bce431494a8f64d7faade6e5b8_0.csv,75,2,,,2020-08-27
,Hertford County,NC,USA,23659,36.392281999999994,-76.94985,https://opendata.arcgis.com/datasets/969678bce431494a8f64d7faade6e5b8_0.csv,486,14,,,2020-08-27
,Northampton County,NC,USA,19676,36.356129499999994,-77.48302000000001,https://opendata.arcgis.com/datasets/969678bce431494a8f64d7faade6e5b8_0.csv,333,17,,,2020-08-27
,Stokes County,NC,USA,45467,36.4039905,-80.2396115,https://opendata.arcgis.com/datasets/969678bce431494a8f64d7faade6e5b8_0.csv,321,3,,,2020-08-27
,Warren County,NC,USA,19807,36.373663,-78.110931,https://opendata.arcgis.com/datasets/969678bce431494a8f64d7faade6e5b8_0.csv,283,6,,,2020-08-27
,Vance County,NC,USA,44582,36.3539845,-78.394374,https://opendata.arcgis.com/datasets/969678bce431494a8f64d7faade6e5b8_0.csv,871,42,,,2020-08-27
,Granville County,NC,USA,60115,36.282139,-78.6309765,https://opendata.arcgis.com/datasets/969678bce431494a8f64d7faade6e5b8_0.csv,1468,40,,,2020-08-27
,Caswell County,NC,USA,22698,36.391928,-79.335016,https://opendata.arcgis.com/datasets/969678bce431494a8f64d7faade6e5b8_0.csv,225,2,,,2020-08-27
,Person County,NC,USA,39507,36.389045499999995,-78.974278,https://opendata.arcgis.com/datasets/969678bce431494a8f64d7faade6e5b8_0.csv,298,2,,,2020-08-27
,Pasquotank County,NC,USA,39639,36.31698,-76.2753735,https://opendata.arcgis.com/datasets/969678bce431494a8f64d7faade6e5b8_0.csv,515,23,,,2020-08-27
,Halifax County,NC,USA,50574,36.255891000000005,-77.618624,https://opendata.arcgis.com/datasets/969678bce431494a8f64d7faade6e5b8_0.csv,836,10,,,2020-08-27
,Wilkes County,NC,USA,68557,36.217608,-81.20716300000001,https://opendata.arcgis.com/datasets/969678bce431494a8f64d7faade6e5b8_0.csv,999,20,,,2020-08-27
,Watauga County,NC,USA,55945,36.2509755,-81.686846,https://opendata.arcgis.com/datasets/969678bce431494a8f64d7faade6e5b8_0.csv,391,,,,2020-08-27
,Perquimans County,NC,USA,13422,36.226709,-76.390806,https://opendata.arcgis.com/datasets/969678bce431494a8f64d7faade6e5b8_0.csv,112,2,,,2020-08-27
,Chowan County,NC,USA,14029,36.178765999999996,-76.5666445,https://opendata.arcgis.com/datasets/969678bce431494a8f64d7faade6e5b8_0.csv,193,2,,,2020-08-27
,Avery County,NC,USA,17505,36.099315000000004,-81.9081385,https://opendata.arcgis.com/datasets/969678bce431494a8f64d7faade6e5b8_0.csv,121,,,,2020-08-27
,Yadkin County,NC,USA,37543,36.165891,-80.657182,https://opendata.arcgis.com/datasets/969678bce431494a8f64d7faade6e5b8_0.csv,604,7,,,2020-08-27
,Dare County,NC,USA,36501,35.708368,-75.7362335,https://opendata.arcgis.com/datasets/969678bce431494a8f64d7faade6e5b8_0.csv,236,2,,,2020-08-27
,Forsyth County,NC,USA,379099,36.1174225,-80.2759705,https://opendata.arcgis.com/datasets/969678bce431494a8f64d7faade6e5b8_0.csv,2,,,,2020-03-13
,Forsyth County,NC,USA,379099,36.1174225,-80.2759705,https://opendata.arcgis.com/datasets/969678bce431494a8f64d7faade6e5b8_0.csv,2,,,,2020-03-14
,Forsyth County,NC,USA,379099,36.1174225,-80.2759705,https://opendata.arcgis.com/datasets/969678bce431494a8f64d7faade6e5b8_0.csv,5952,70,,,2020-08-27
,Franklin County,NC,USA,67560,36.0419445,-78.27652549999999,https://opendata.arcgis.com/datasets/969678bce431494a8f64d7faade6e5b8_0.csv,996,28,,,2020-08-27
,Bertie County,NC,USA,19026,36.0338355,-77.0036715,https://opendata.arcgis.com/datasets/969678bce431494a8f64d7faade6e5b8_0.csv,372,5,,,2020-08-27
,Orange County,NC,USA,146027,36.052271,-79.107692,https://opendata.arcgis.com/datasets/969678bce431494a8f64d7faade6e5b8_0.csv,2090,50,,,2020-08-27
,Durham County,NC,USA,316739,36.051317999999995,-78.8573145,https://opendata.arcgis.com/datasets/969678bce431494a8f64d7faade6e5b8_0.csv,1,,,,2020-03-13
,Durham County,NC,USA,316739,36.051317999999995,-78.8573145,https://opendata.arcgis.com/datasets/969678bce431494a8f64d7faade6e5b8_0.csv,1,,,,2020-03-14
,Durham County,NC,USA,316739,36.051317999999995,-78.8573145,https://opendata.arcgis.com/datasets/969678bce431494a8f64d7faade6e5b8_0.csv,6699,82,,,2020-08-27
,Nash County,NC,USA,94016,35.966553000000005,-77.976391,https://opendata.arcgis.com/datasets/969678bce431494a8f64d7faade6e5b8_0.csv,1518,21,,,2020-08-27
,Mitchell County,NC,USA,15000,35.991779,-82.198442,https://opendata.arcgis.com/datasets/969678bce431494a8f64d7faade6e5b8_0.csv,89,3,,,2020-08-27
,Edgecombe County,NC,USA,52005,35.915150999999994,-77.585453,https://opendata.arcgis.com/datasets/969678bce431494a8f64d7faade6e5b8_0.csv,871,17,,,2020-08-27
,Caldwell County,NC,USA,82029,35.939887,-81.5699525,https://opendata.arcgis.com/datasets/969678bce431494a8f64d7faade6e5b8_0.csv,1369,14,,,2020-08-27
,Tyrrell County,NC,USA,4131,35.7957445,-76.210059,https://opendata.arcgis.com/datasets/969678bce431494a8f64d7faade6e5b8_0.csv,104,2,,,2020-08-27
,Yancey County,NC,USA,17903,35.888507000000004,-82.31928300000001,https://opendata.arcgis.com/datasets/969678bce431494a8f64d7faade6e5b8_0.csv,87,,,,2020-08-27
,Madison County,NC,USA,21763,35.8719975,-82.685785,https://opendata.arcgis.com/datasets/969678bce431494a8f64d7faade6e5b8_0.csv,58,1,,,2020-08-27
,Martin County,NC,USA,22671,35.8664985,-77.084982,https://opendata.arcgis.com/datasets/969678bce431494a8f64d7faade6e5b8_0.csv,318,7,,,2020-08-27
,Wake County,NC,USA,1092305,35.796786499999996,-78.6249785,https://opendata.arcgis.com/datasets/969678bce431494a8f64d7faade6e5b8_0.csv,8,,,,2020-03-13
,Wake County,NC,USA,1092305,35.796786499999996,-78.6249785,https://opendata.arcgis.com/datasets/969678bce431494a8f64d7faade6e5b8_0.csv,11,,,,2020-03-14
,Wake County,NC,USA,1092305,35.796786499999996,-78.6249785,https://opendata.arcgis.com/datasets/969678bce431494a8f64d7faade6e5b8_0.csv,14151,196,,,2020-08-27
,Davie County,NC,USA,42733,35.9026525,-80.5364645,https://opendata.arcgis.com/datasets/969678bce431494a8f64d7faade6e5b8_0.csv,463,6,,,2020-08-27
,Washington County,NC,USA,11859,35.840892999999994,-76.6003345,https://opendata.arcgis.com/datasets/969678bce431494a8f64d7faade6e5b8_0.csv,169,4,,,2020-08-27
,Burke County,NC,USA,90382,35.7791955,-81.675545,https://opendata.arcgis.com/datasets/969678bce431494a8f64d7faade6e5b8_0.csv,1817,28,,,2020-08-27
,Davidson County,NC,USA,166614,35.765553499999996,-80.2652875,https://opendata.arcgis.com/datasets/969678bce431494a8f64d7faade6e5b8_0.csv,2080,32,,,2020-08-27
,McDowell County,NC,USA,45507,35.738724500000004,-82.0594425,https://opendata.arcgis.com/datasets/969678bce431494a8f64d7faade6e5b8_0.csv,762,24,,,2020-08-27
,Chatham County,NC,USA,73139,35.6959365,-79.231033,https://opendata.arcgis.com/datasets/969678bce431494a8f64d7faade6e5b8_0.csv,1,,,,2020-03-13
,Chatham County,NC,USA,73139,35.6959365,-79.231033,https://opendata.arcgis.com/datasets/969678bce431494a8f64d7faade6e5b8_0.csv,1,,,,2020-03-14
,Chatham County,NC,USA,73139,35.6959365,-79.231033,https://opendata.arcgis.com/datasets/969678bce431494a8f64d7faade6e5b8_0.csv,1443,56,,,2020-08-27
,Wilson County,NC,USA,81455,35.7253325,-77.926691,https://opendata.arcgis.com/datasets/969678bce431494a8f64d7faade6e5b8_0.csv,1677,36,,,2020-08-27
,Buncombe County,NC,USA,259103,35.620303,-82.5263415,https://opendata.arcgis.com/datasets/969678bce431494a8f64d7faade6e5b8_0.csv,2314,67,,,2020-08-27
,Haywood County,NC,USA,61971,35.5418605,-83.000247,https://opendata.arcgis.com/datasets/969678bce431494a8f64d7faade6e5b8_0.csv,491,25,,,2020-08-27
,Catawba County,NC,USA,158652,35.6878485,-81.22916649999999,https://opendata.arcgis.com/datasets/969678bce431494a8f64d7faade6e5b8_0.csv,2483,42,,,2020-08-27
,Pitt County,NC,USA,179914,35.580454,-77.392609,https://opendata.arcgis.com/datasets/969678bce431494a8f64d7faade6e5b8_0.csv,2934,15,,,2020-08-27
,Johnston County,NC,USA,202675,35.537085,-78.386616,https://opendata.arcgis.com/datasets/969678bce431494a8f64d7faade6e5b8_0.csv,1,,,,2020-03-13
,Johnston County,NC,USA,202675,35.537085,-78.386616,https://opendata.arcgis.com/datasets/969678bce431494a8f64d7faade6e5b8_0.csv,1,,,,2020-03-14
,Johnston County,NC,USA,202675,35.537085,-78.386616,https://opendata.arcgis.com/datasets/969678bce431494a8f64d7faade6e5b8_0.csv,3664,49,,,2020-08-27
,Swain County,NC,USA,14245,35.4877375,-83.554631,https://opendata.arcgis.com/datasets/969678bce431494a8f64d7faade6e5b8_0.csv,125,3,,,2020-08-27
,Beaufort County,NC,USA,47079,35.477776000000006,-76.83147650000001,https://opendata.arcgis.com/datasets/969678bce431494a8f64d7faade6e5b8_0.csv,512,9,,,2020-08-27
,Hyde County,NC,USA,5230,35.383544,-76.19371849999999,https://opendata.arcgis.com/datasets/969678bce431494a8f64d7faade6e5b8_0.csv,85,,,,2020-08-27
,Greene County,NC,USA,21012,35.500008,-77.6507765,https://opendata.arcgis.com/datasets/969678bce431494a8f64d7faade6e5b8_0.csv,378,3,,,2020-08-27
,Rutherford County,NC,USA,66826,35.395423,-81.985972,https://opendata.arcgis.com/datasets/969678bce431494a8f64d7faade6e5b8_0.csv,906,18,,,2020-08-27
,Lee County,NC,USA,61452,35.467607,-79.16466,https://opendata.arcgis.com/datasets/969678bce431494a8f64d7faade6e5b8_0.csv,1391,12,,,2020-08-27
,Cleveland County,NC,USA,97645,35.371596499999995,-81.54468800000001,https://opendata.arcgis.com/datasets/969678bce431494a8f64d7faade6e5b8_0.csv,1509,30,,,2020-08-27
,Jackson County,NC,USA,43327,35.26292,-83.1417865,https://opendata.arcgis.com/datasets/969678bce431494a8f64d7faade6e5b8_0.csv,473,7,,,2020-08-27
,Harnett County,NC,USA,134214,35.3876225,-78.87648899999999,https://opendata.arcgis.com/datasets/969678bce431494a8f64d7faade6e5b8_0.csv,1,,,,2020-03-14
,Harnett County,NC,USA,134214,35.3876225,-78.87648899999999,https://opendata.arcgis.com/datasets/969678bce431494a8f64d7faade6e5b8_0.csv,1531,45,,,2020-08-27
,Graham County,NC,USA,8484,35.342066,-83.810297,https://opendata.arcgis.com/datasets/969678bce431494a8f64d7faade6e5b8_0.csv,50,,,,2020-08-27
,Henderson County,NC,USA,116748,35.322029,-82.5033325,https://opendata.arcgis.com/datasets/969678bce431494a8f64d7faade6e5b8_0.csv,1667,59,,,2020-08-27
,Moore County,NC,USA,98682,35.2805435,-79.43270749999999,https://opendata.arcgis.com/datasets/969678bce431494a8f64d7faade6e5b8_0.csv,1230,21,,,2020-08-27
,Montgomery County,NC,USA,27271,35.324289,-79.898494,https://opendata.arcgis.com/datasets/969678bce431494a8f64d7faade6e5b8_0.csv,824,17,,,2020-08-27
,Stanly County,NC,USA,62075,35.323707999999996,-80.278733,https://opendata.arcgis.com/datasets/969678bce431494a8f64d7faade6e5b8_0.csv,1413,31,,,2020-08-27
,Transylvania County,NC,USA,34215,35.2252595,-82.815485,https://opendata.arcgis.com/datasets/969678bce431494a8f64d7faade6e5b8_0.csv,215,2,,,2020-08-27
,Polk County,NC,USA,20611,35.296185,-82.1603345,https://opendata.arcgis.com/datasets/969678bce431494a8f64d7faade6e5b8_0.csv,214,6,,,2020-08-27
,Lenoir County,NC,USA,55976,35.2174715,-77.6126075,https://opendata.arcgis.com/datasets/969678bce431494a8f64d7faade6e5b8_0.csv,741,12,,,2020-08-27
,Craven County,NC,USA,102912,35.110855,-77.063318,https://opendata.arcgis.com/datasets/969678bce431494a8f64d7faade6e5b8_0.csv,1,,,,2020-03-14
,Craven County,NC,USA,102912,35.110855,-77.063318,https://opendata.arcgis.com/datasets/969678bce431494a8f64d7faade6e5b8_0.csv,881,26,,,2020-08-27
,Macon County,NC,USA,35285,35.162244,-83.42341,https://opendata.arcgis.com/datasets/969678bce431494a8f64d7faade6e5b8_0.csv,521,2,,,2020-08-27
,Cherokee County,NC,USA,28383,35.139748499999996,-84.0097475,https://opendata.arcgis.com/datasets/969678bce431494a8f64d7faade6e5b8_0.csv,376,5,,,2020-08-27
,Pamlico County,NC,USA,12670,35.1507535,-76.72772499999999,https://opendata.arcgis.com/datasets/969678bce431494a8f64d7faade6e5b8_0.csv,92,2,,,2020-08-27
,Sampson County,NC,USA,63626,34.9345395,-78.3926405,https://opendata.arcgis.com/datasets/969678bce431494a8f64d7faade6e5b8_0.csv,1574,20,,,2020-08-27
,Cumberland County,NC,USA,332330,35.0502155,-78.8038205,https://opendata.arcgis.com/datasets/969678bce431494a8f64d7faade6e5b8_0.csv,3861,65,,,2020-08-27
,Clay County,NC,USA,11139,35.0712515,-83.7441825,https://opendata.arcgis.com/datasets/969678bce431494a8f64d7faade6e5b8_0.csv,83,1,,,2020-08-27
,Jones County,NC,USA,9637,35.014189,-77.39021650000001,https://opendata.arcgis.com/datasets/969678bce431494a8f64d7faade6e5b8_0.csv,128,6,,,2020-08-27
,Carteret County,NC,USA,69524,34.832848999999996,-76.60086799999999,https://opendata.arcgis.com/datasets/969678bce431494a8f64d7faade6e5b8_0.csv,446,5,,,2020-08-27
,Union County,NC,USA,235908,35.0112285,-80.5587175,https://opendata.arcgis.com/datasets/969678bce431494a8f64d7faade6e5b8_0.csv,3751,47,,,2020-08-27
,Anson County,NC,USA,24877,35.008912,-80.0844735,https://opendata.arcgis.com/datasets/969678bce431494a8f64d7faade6e5b8_0.csv,421,3,,,2020-08-27
,Hoke County,NC,USA,54764,35.02319,-79.24694550000001,https://opendata.arcgis.com/datasets/969678bce431494a8f64d7faade6e5b8_0.csv,842,12,,,2020-08-27
,Duplin County,NC,USA,58856,34.9501105,-77.9257305,https://opendata.arcgis.com/datasets/969678bce431494a8f64d7faade6e5b8_0.csv,2061,49,,,2020-08-27
,Richmond County,NC,USA,44887,34.99408,-79.76728299999999,https://opendata.arcgis.com/datasets/969678bce431494a8f64d7faade6e5b8_0.csv,628,9,,,2020-08-27
,Scotland County,NC,USA,34810,34.836764,-79.5119535,https://opendata.arcgis.com/datasets/969678bce431494a8f64d7faade6e5b8_0.csv,573,8,,,2020-08-27
,Onslow County,NC,USA,197683,34.712451,-77.3899735,https://opendata.arcgis.com/datasets/969678bce431494a8f64d7faade6e5b8_0.csv,1,,,,2020-03-14
,Onslow County,NC,USA,197683,34.712451,-77.3899735,https://opendata.arcgis.com/datasets/969678bce431494a8f64d7faade6e5b8_0.csv,1403,14,,,2020-08-27
,Robeson County,NC,USA,131831,34.626412,-79.133749,https://opendata.arcgis.com/datasets/969678bce431494a8f64d7faade6e5b8_0.csv,3303,59,,,2020-08-27
,Bladen County,NC,USA,33190,34.611776500000005,-78.5427315,https://opendata.arcgis.com/datasets/969678bce431494a8f64d7faade6e5b8_0.csv,684,9,,,2020-08-27
,Pender County,NC,USA,62162,34.512526,-77.894035,https://opendata.arcgis.com/datasets/969678bce431494a8f64d7faade6e5b8_0.csv,743,4,,,2020-08-27
,Columbus County,NC,USA,55655,34.2134885,-78.6167595,https://opendata.arcgis.com/datasets/969678bce431494a8f64d7faade6e5b8_0.csv,1058,51,,,2020-08-27
,New Hanover County,NC,USA,232274,34.15828500000001,-77.872919,https://opendata.arcgis.com/datasets/969678bce431494a8f64d7faade6e5b8_0.csv,2884,21,,,2020-08-27
,Brunswick County,NC,USA,136744,34.1056615,-78.292874,https://opendata.arcgis.com/datasets/969678bce431494a8f64d7faade6e5b8_0.csv,1,,,,2020-03-14
,Brunswick County,NC,USA,136744,34.1056615,-78.292874,https://opendata.arcgis.com/datasets/969678bce431494a8f64d7faade6e5b8_0.csv,1365,24,,,2020-08-27
,Iredell County,NC,USA,178435,35.7732565,-80.901307,https://opendata.arcgis.com/datasets/969678bce431494a8f64d7faade6e5b8_0.csv,2239,18,,,2020-08-27
,Rowan County,NC,USA,141262,35.6830585,-80.47710000000001,https://opendata.arcgis.com/datasets/969678bce431494a8f64d7faade6e5b8_0.csv,2628,59,,,2020-08-27
,Lincoln County,NC,USA,83770,35.484821999999994,-81.24025,https://opendata.arcgis.com/datasets/969678bce431494a8f64d7faade6e5b8_0.csv,1049,10,,,2020-08-27
,Mecklenburg County,NC,USA,1093901,35.2583695,-80.804163,https://opendata.arcgis.com/datasets/969678bce431494a8f64d7faade6e5b8_0.csv,1,,,,2020-03-13
,Mecklenburg County,NC,USA,1093901,35.2583695,-80.804163,https://opendata.arcgis.com/datasets/969678bce431494a8f64d7faade6e5b8_0.csv,1,,,,2020-03-14
,Mecklenburg County,NC,USA,1093901,35.2583695,-80.804163,https://opendata.arcgis.com/datasets/969678bce431494a8f64d7faade6e5b8_0.csv,24545,283,,,2020-08-27
,Cabarrus County,NC,USA,211342,35.3456055,-80.541589,https://opendata.arcgis.com/datasets/969678bce431494a8f64d7faade6e5b8_0.csv,1,,,,2020-03-13
,Cabarrus County,NC,USA,211342,35.3456055,-80.541589,https://opendata.arcgis.com/datasets/969678bce431494a8f64d7faade6e5b8_0.csv,1,,,,2020-03-14
,Cabarrus County,NC,USA,211342,35.3456055,-80.541589,https://opendata.arcgis.com/datasets/969678bce431494a8f64d7faade6e5b8_0.csv,3029,51,,,2020-08-27
,Gaston County,NC,USA,222846,35.284431999999995,-81.1896935,https://opendata.arcgis.com/datasets/969678bce431494a8f64d7faade6e5b8_0.csv,3910,62,,,2020-08-27
,Bergen County,NJ,USA,936692,40.952146,-74.08225,https://opendata.arcgis.com/datasets/8840fd8ac1314f5188e6cf98b525321c_0.csv,17,,,24,2020-03-13
,Bergen County,NJ,USA,936692,40.952146,-74.08225,https://opendata.arcgis.com/datasets/8840fd8ac1314f5188e6cf98b525321c_0.csv,25,,,32,2020-03-14
,Burlington County,NJ,USA,445384,39.8658955,-74.72494950000001,https://opendata.arcgis.com/datasets/8840fd8ac1314f5188e6cf98b525321c_0.csv,3,,,6,2020-03-13
,Burlington County,NJ,USA,445384,39.8658955,-74.72494950000001,https://opendata.arcgis.com/datasets/8840fd8ac1314f5188e6cf98b525321c_0.csv,3,,,6,2020-03-14
,Camden County,NJ,USA,507078,39.800549000000004,-74.9381575,https://opendata.arcgis.com/datasets/8840fd8ac1314f5188e6cf98b525321c_0.csv,1,,,4,2020-03-13
,Camden County,NJ,USA,507078,39.800549000000004,-74.9381575,https://opendata.arcgis.com/datasets/8840fd8ac1314f5188e6cf98b525321c_0.csv,2,,,5,2020-03-14
,Cumberland County,NJ,USA,150972,39.373098,-75.135421,https://opendata.arcgis.com/datasets/8840fd8ac1314f5188e6cf98b525321c_0.csv,,,,1,2020-03-13
,Cumberland County,NJ,USA,150972,39.373098,-75.135421,https://opendata.arcgis.com/datasets/8840fd8ac1314f5188e6cf98b525321c_0.csv,,,,1,2020-03-14
,Essex County,NJ,USA,799767,40.7914715,-74.24515199999999,https://opendata.arcgis.com/datasets/8840fd8ac1314f5188e6cf98b525321c_0.csv,5,,,9,2020-03-13
,Essex County,NJ,USA,799767,40.7914715,-74.24515199999999,https://opendata.arcgis.com/datasets/8840fd8ac1314f5188e6cf98b525321c_0.csv,7,,,11,2020-03-14
,Hudson County,NJ,USA,676061,40.732721999999995,-74.07540449999999,https://opendata.arcgis.com/datasets/8840fd8ac1314f5188e6cf98b525321c_0.csv,3,,,9,2020-03-13
,Hudson County,NJ,USA,676061,40.732721999999995,-74.07540449999999,https://opendata.arcgis.com/datasets/8840fd8ac1314f5188e6cf98b525321c_0.csv,5,,,11,2020-03-14
,Hunterdon County,NJ,USA,124714,40.5647375,-74.9494015,https://opendata.arcgis.com/datasets/8840fd8ac1314f5188e6cf98b525321c_0.csv,,,,1,2020-03-13
,Hunterdon County,NJ,USA,124714,40.5647375,-74.9494015,https://opendata.arcgis.com/datasets/8840fd8ac1314f5188e6cf98b525321c_0.csv,,,,1,2020-03-14
,Mercer County,NJ,USA,369811,40.280848500000005,-74.7122715,https://opendata.arcgis.com/datasets/8840fd8ac1314f5188e6cf98b525321c_0.csv,1,,,1,2020-03-14
,Monmouth County,NJ,USA,621354,40.2778005,-74.2928135,https://opendata.arcgis.com/datasets/8840fd8ac1314f5188e6cf98b525321c_0.csv,7,,,12,2020-03-13
,Monmouth County,NJ,USA,621354,40.2778005,-74.2928135,https://opendata.arcgis.com/datasets/8840fd8ac1314f5188e6cf98b525321c_0.csv,8,,,13,2020-03-14
,Ocean County,NJ,USA,601651,39.835446000000005,-74.29221150000001,https://opendata.arcgis.com/datasets/8840fd8ac1314f5188e6cf98b525321c_0.csv,1,,,2,2020-03-13
,Ocean County,NJ,USA,601651,39.835446000000005,-74.29221150000001,https://opendata.arcgis.com/datasets/8840fd8ac1314f5188e6cf98b525321c_0.csv,1,,,2,2020-03-14
,Passaic County,NJ,USA,503310,41.0114805,-74.304839,https://opendata.arcgis.com/datasets/8840fd8ac1314f5188e6cf98b525321c_0.csv,2,,,4,2020-03-13
,Passaic County,NJ,USA,503310,41.0114805,-74.304839,https://opendata.arcgis.com/datasets/8840fd8ac1314f5188e6cf98b525321c_0.csv,2,,,4,2020-03-14
,Somerset County,NJ,USA,331164,40.566201,-74.5998835,https://opendata.arcgis.com/datasets/8840fd8ac1314f5188e6cf98b525321c_0.csv,1,,,1,2020-03-13
,Somerset County,NJ,USA,331164,40.566201,-74.5998835,https://opendata.arcgis.com/datasets/8840fd8ac1314f5188e6cf98b525321c_0.csv,1,,,1,2020-03-14
,Sussex County,NJ,USA,140799,41.128282,-74.678832,https://opendata.arcgis.com/datasets/8840fd8ac1314f5188e6cf98b525321c_0.csv,,,,1,2020-03-13
,Sussex County,NJ,USA,140799,41.128282,-74.678832,https://opendata.arcgis.com/datasets/8840fd8ac1314f5188e6cf98b525321c_0.csv,,,,1,2020-03-14
,Union County,NJ,USA,558067,40.665566,-74.300027,https://opendata.arcgis.com/datasets/8840fd8ac1314f5188e6cf98b525321c_0.csv,1,,,6,2020-03-13
,Union County,NJ,USA,558067,40.665566,-74.300027,https://opendata.arcgis.com/datasets/8840fd8ac1314f5188e6cf98b525321c_0.csv,1,,,6,2020-03-14
,Warren County,NJ,USA,105779,40.8430415,-74.985897,https://opendata.arcgis.com/datasets/8840fd8ac1314f5188e6cf98b525321c_0.csv,,,,1,2020-03-13
,Warren County,NJ,USA,105779,40.8430415,-74.985897,https://opendata.arcgis.com/datasets/8840fd8ac1314f5188e6cf98b525321c_0.csv,,,,1,2020-03-14
,Morris County,NJ,USA,494228,40.867802999999995,-74.5802275,https://opendata.arcgis.com/datasets/8840fd8ac1314f5188e6cf98b525321c_0.csv,3,,,3,2020-03-13
,Morris County,NJ,USA,494228,40.867802999999995,-74.5802275,https://opendata.arcgis.com/datasets/8840fd8ac1314f5188e6cf98b525321c_0.csv,3,,,3,2020-03-14
,Middlesex County,NJ,USA,829685,40.430130500000004,-74.41841600000001,https://opendata.arcgis.com/datasets/8840fd8ac1314f5188e6cf98b525321c_0.csv,3,,,7,2020-03-13
,Middlesex County,NJ,USA,829685,40.430130500000004,-74.41841600000001,https://opendata.arcgis.com/datasets/8840fd8ac1314f5188e6cf98b525321c_0.csv,10,,,14,2020-03-14
,,British Columbia,Canada,,,,https://www.canada.ca/en/public-health/services/diseases/2019-novel-coronavirus-infection.html,53,,,,2020-03-13
,,British Columbia,Canada,,,,https://www.canada.ca/en/public-health/services/diseases/2019-novel-coronavirus-infection.html,64,,,,2020-03-14
,,Alberta,Canada,,,,https://www.canada.ca/en/public-health/services/diseases/2019-novel-coronavirus-infection.html,23,,,,2020-03-13
,,Alberta,Canada,,,,https://www.canada.ca/en/public-health/services/diseases/2019-novel-coronavirus-infection.html,29,,,,2020-03-14
,,Manitoba,Canada,,,,https://www.canada.ca/en/public-health/services/diseases/2019-novel-coronavirus-infection.html,1,,,,2020-03-13
,,Manitoba,Canada,,,,https://www.canada.ca/en/public-health/services/diseases/2019-novel-coronavirus-infection.html,1,,,,2020-03-14
,,Ontario,Canada,,,,https://www.canada.ca/en/public-health/services/diseases/2019-novel-coronavirus-infection.html,79,,,,2020-03-13
,,Ontario,Canada,,,,https://www.canada.ca/en/public-health/services/diseases/2019-novel-coronavirus-infection.html,79,,,,2020-03-14
,,Quebec,Canada,,,,https://www.canada.ca/en/public-health/services/diseases/2019-novel-coronavirus-infection.html,17,,,,2020-03-13
,,Quebec,Canada,,,,https://www.canada.ca/en/public-health/services/diseases/2019-novel-coronavirus-infection.html,17,,,,2020-03-14
,,New Brunswick,Canada,,,,https://www.canada.ca/en/public-health/services/diseases/2019-novel-coronavirus-infection.html,1,,,,2020-03-13
,,New Brunswick,Canada,,,,https://www.canada.ca/en/public-health/services/diseases/2019-novel-coronavirus-infection.html,1,,,,2020-03-14
,Copiah County,MS,USA,,,,"https://msdh.ms.gov/msdhsite/_static/14,0,420.html",1,,,,2020-03-13
,Copiah County,MS,USA,,,,"https://msdh.ms.gov/msdhsite/_static/14,0,420.html",1,,,,2020-03-14
,Pearl River County,MS,USA,,,,"https://msdh.ms.gov/msdhsite/_static/14,0,420.html",1,,,,2020-03-13
,Pearl River County,MS,USA,,,,"https://msdh.ms.gov/msdhsite/_static/14,0,420.html",1,,,,2020-03-14
,Leflore County,MS,USA,,,,"https://msdh.ms.gov/msdhsite/_static/14,0,420.html",1,,,,2020-03-13
,Leflore County,MS,USA,,,,"https://msdh.ms.gov/msdhsite/_static/14,0,420.html",1,,,,2020-03-14
,Forrest County,MS,USA,,,,"https://msdh.ms.gov/msdhsite/_static/14,0,420.html",3,,,,2020-03-13
,Forrest County,MS,USA,,,,"https://msdh.ms.gov/msdhsite/_static/14,0,420.html",3,,,,2020-03-14
,,DC,USA,,,,https://coronavirus.dc.gov/page/coronavirus-data,10,,,69,2020-03-13
,,DC,USA,,,,https://coronavirus.dc.gov/page/coronavirus-data,10,,,69,2020-03-14
,Clackamas County,OR,USA,,,,https://www.oregon.gov/oha/PH/DISEASESCONDITIONS/DISEASESAZ/Pages/emerging-respiratory-infections.aspx,1,,,,2020-03-13
,Clackamas County,OR,USA,,,,https://www.oregon.gov/oha/PH/DISEASESCONDITIONS/DISEASESAZ/Pages/emerging-respiratory-infections.aspx,1,,,,2020-03-14
,Deschutes County,OR,USA,,,,https://www.oregon.gov/oha/PH/DISEASESCONDITIONS/DISEASESAZ/Pages/emerging-respiratory-infections.aspx,1,,,,2020-03-13
,Deschutes County,OR,USA,,,,https://www.oregon.gov/oha/PH/DISEASESCONDITIONS/DISEASESAZ/Pages/emerging-respiratory-infections.aspx,1,,,,2020-03-14
,Douglas County,OR,USA,,,,https://www.oregon.gov/oha/PH/DISEASESCONDITIONS/DISEASESAZ/Pages/emerging-respiratory-infections.aspx,1,,,,2020-03-13
,Douglas County,OR,USA,,,,https://www.oregon.gov/oha/PH/DISEASESCONDITIONS/DISEASESAZ/Pages/emerging-respiratory-infections.aspx,1,,,,2020-03-14
,Jackson County,OR,USA,,,,https://www.oregon.gov/oha/PH/DISEASESCONDITIONS/DISEASESAZ/Pages/emerging-respiratory-infections.aspx,2,,,,2020-03-13
,Jackson County,OR,USA,,,,https://www.oregon.gov/oha/PH/DISEASESCONDITIONS/DISEASESAZ/Pages/emerging-respiratory-infections.aspx,2,,,,2020-03-14
,Klamath County,OR,USA,,,,https://www.oregon.gov/oha/PH/DISEASESCONDITIONS/DISEASESAZ/Pages/emerging-respiratory-infections.aspx,1,,,,2020-03-13
,Klamath County,OR,USA,,,,https://www.oregon.gov/oha/PH/DISEASESCONDITIONS/DISEASESAZ/Pages/emerging-respiratory-infections.aspx,1,,,,2020-03-14
,Linn County,OR,USA,,,,https://www.oregon.gov/oha/PH/DISEASESCONDITIONS/DISEASESAZ/Pages/emerging-respiratory-infections.aspx,8,,,,2020-03-13
,Linn County,OR,USA,,,,https://www.oregon.gov/oha/PH/DISEASESCONDITIONS/DISEASESAZ/Pages/emerging-respiratory-infections.aspx,8,,,,2020-03-14
,Marion County,OR,USA,,,,https://www.oregon.gov/oha/PH/DISEASESCONDITIONS/DISEASESAZ/Pages/emerging-respiratory-infections.aspx,2,,,,2020-03-13
,Marion County,OR,USA,,,,https://www.oregon.gov/oha/PH/DISEASESCONDITIONS/DISEASESAZ/Pages/emerging-respiratory-infections.aspx,2,,,,2020-03-14
,Multnomah County,OR,USA,,,,https://www.oregon.gov/oha/PH/DISEASESCONDITIONS/DISEASESAZ/Pages/emerging-respiratory-infections.aspx,1,,,,2020-03-13
,Multnomah County,OR,USA,,,,https://www.oregon.gov/oha/PH/DISEASESCONDITIONS/DISEASESAZ/Pages/emerging-respiratory-infections.aspx,1,,,,2020-03-14
,Polk County,OR,USA,,,,https://www.oregon.gov/oha/PH/DISEASESCONDITIONS/DISEASESAZ/Pages/emerging-respiratory-infections.aspx,1,,,,2020-03-13
,Polk County,OR,USA,,,,https://www.oregon.gov/oha/PH/DISEASESCONDITIONS/DISEASESAZ/Pages/emerging-respiratory-infections.aspx,1,,,,2020-03-14
,Umatilla County,OR,USA,,,,https://www.oregon.gov/oha/PH/DISEASESCONDITIONS/DISEASESAZ/Pages/emerging-respiratory-infections.aspx,2,,,,2020-03-13
,Umatilla County,OR,USA,,,,https://www.oregon.gov/oha/PH/DISEASESCONDITIONS/DISEASESAZ/Pages/emerging-respiratory-infections.aspx,2,,,,2020-03-14
,Washington County,OR,USA,,,,https://www.oregon.gov/oha/PH/DISEASESCONDITIONS/DISEASESAZ/Pages/emerging-respiratory-infections.aspx,10,,,,2020-03-13
,Washington County,OR,USA,,,,https://www.oregon.gov/oha/PH/DISEASESCONDITIONS/DISEASESAZ/Pages/emerging-respiratory-infections.aspx,10,,,,2020-03-14
,Jefferson Parish,LA,USA,,,,http://ldh.la.gov/Coronavirus/,3,,,,2020-03-13
,Lafourche Parish,LA,USA,,,,http://ldh.la.gov/Coronavirus/,1,,,,2020-03-13
,Orleans Parish,LA,USA,,,,http://ldh.la.gov/Coronavirus/,26,,,,2020-03-13
,St. Bernard Parish,LA,USA,,,,http://ldh.la.gov/Coronavirus/,1,,,,2020-03-13
,St. Charles Parish,LA,USA,,,,http://ldh.la.gov/Coronavirus/,1,,,,2020-03-13
,St. Tammany Parish,LA,USA,,,,http://ldh.la.gov/Coronavirus/,2,,,,2020-03-13
,Terrebonne Parish,LA,USA,,,,http://ldh.la.gov/Coronavirus/,1,,,,2020-03-13
,Carroll County,IA,USA,,,,https://idph.iowa.gov/emerging-health-issues/novel-coronavirus,1,,,,2020-03-13
,Harrison County,IA,USA,,,,https://idph.iowa.gov/emerging-health-issues/novel-coronavirus,1,,,,2020-03-13
,Johnson County,IA,USA,,,,https://idph.iowa.gov/emerging-health-issues/novel-coronavirus,14,,,,2020-03-13
,Pottawattamie County,IA,USA,,,,https://idph.iowa.gov/emerging-health-issues/novel-coronavirus,1,,,,2020-03-13
,Bell County,TX,USA,,,,https://www.dshs.state.tx.us/news/updates.shtm,1,,,,2020-03-13
,Bell County,TX,USA,,,,https://www.dshs.state.tx.us/news/updates.shtm,1,,,,2020-03-14
,Collin County,TX,USA,,,,https://www.dshs.state.tx.us/news/updates.shtm,6,,,,2020-03-13
,Collin County,TX,USA,,,,https://www.dshs.state.tx.us/news/updates.shtm,5,,,,2020-03-14
,Dallas County,TX,USA,,,,https://www.dshs.state.tx.us/news/updates.shtm,7,,,,2020-03-13
,Dallas County,TX,USA,,,,https://www.dshs.state.tx.us/news/updates.shtm,8,,,,2020-03-14
,Fort Bend County,TX,USA,,,,https://www.dshs.state.tx.us/news/updates.shtm,6,,,,2020-03-13
,Fort Bend County,TX,USA,,,,https://www.dshs.state.tx.us/news/updates.shtm,9,,,,2020-03-14
,Gregg County,TX,USA,,,,https://www.dshs.state.tx.us/news/updates.shtm,1,,,,2020-03-13
,Gregg County,TX,USA,,,,https://www.dshs.state.tx.us/news/updates.shtm,4,,,,2020-03-14
,Harris County,TX,USA,,,,https://www.dshs.state.tx.us/news/updates.shtm,9,,,,2020-03-13
,Harris County,TX,USA,,,,https://www.dshs.state.tx.us/news/updates.shtm,10,,,,2020-03-14
,Montgomery County,TX,USA,,,,https://www.dshs.state.tx.us/news/updates.shtm,3,,,,2020-03-13
,Montgomery County,TX,USA,,,,https://www.dshs.state.tx.us/news/updates.shtm,3,,,,2020-03-14
,Smith County,TX,USA,,,,https://www.dshs.state.tx.us/news/updates.shtm,3,,,,2020-03-13
,Smith County,TX,USA,,,,https://www.dshs.state.tx.us/news/updates.shtm,3,,,,2020-03-14
,Tarrant County,TX,USA,,,,https://www.dshs.state.tx.us/news/updates.shtm,1,,,,2020-03-13
,Tarrant County,TX,USA,,,,https://www.dshs.state.tx.us/news/updates.shtm,3,,,,2020-03-14
,Travis County,TX,USA,,,,https://www.dshs.state.tx.us/news/updates.shtm,2,,,,2020-03-13
,Travis County,TX,USA,,,,https://www.dshs.state.tx.us/news/updates.shtm,1,,,,2020-03-14
,New Castle County,DE,USA,,,,https://www.dhss.delaware.gov/dhss/dph/epi/2019novelcoronavirus.html,4,,,,2020-03-13
,New Castle County,DE,USA,,,,https://www.dhss.delaware.gov/dhss/dph/epi/2019novelcoronavirus.html,6,,,,2020-03-14
,Manatee County,FL,USA,,,,http://www.floridahealth.gov/diseases-and-conditions/COVID-19/index.html,2,,,,2020-03-13
,Manatee County,FL,USA,,,,http://www.floridahealth.gov/diseases-and-conditions/COVID-19/index.html,4,,,,2020-03-14
,Hillsborough County,FL,USA,,,,http://www.floridahealth.gov/diseases-and-conditions/COVID-19/index.html,2,,,,2020-03-13
,Hillsborough County,FL,USA,,,,http://www.floridahealth.gov/diseases-and-conditions/COVID-19/index.html,2,,,,2020-03-14
,Santa Rosa County,FL,USA,,,,http://www.floridahealth.gov/diseases-and-conditions/COVID-19/index.html,1,,,,2020-03-13
,Santa Rosa County,FL,USA,,,,http://www.floridahealth.gov/diseases-and-conditions/COVID-19/index.html,1,,,,2020-03-14
,Broward County,FL,USA,,,,http://www.floridahealth.gov/diseases-and-conditions/COVID-19/index.html,11,,,,2020-03-13
,Broward County,FL,USA,,,,http://www.floridahealth.gov/diseases-and-conditions/COVID-19/index.html,20,,,,2020-03-14
,Lee County,FL,USA,,,,http://www.floridahealth.gov/diseases-and-conditions/COVID-19/index.html,4,,,,2020-03-13
,Lee County,FL,USA,,,,http://www.floridahealth.gov/diseases-and-conditions/COVID-19/index.html,4,,,,2020-03-14
,Charlotte County,FL,USA,,,,http://www.floridahealth.gov/diseases-and-conditions/COVID-19/index.html,1,,,,2020-03-13
,Charlotte County,FL,USA,,,,http://www.floridahealth.gov/diseases-and-conditions/COVID-19/index.html,1,,,,2020-03-14
,Okaloosa County,FL,USA,,,,http://www.floridahealth.gov/diseases-and-conditions/COVID-19/index.html,1,,,,2020-03-13
,Okaloosa County,FL,USA,,,,http://www.floridahealth.gov/diseases-and-conditions/COVID-19/index.html,1,,,,2020-03-14
,Volusia County,FL,USA,,,,http://www.floridahealth.gov/diseases-and-conditions/COVID-19/index.html,3,,,,2020-03-13
,Volusia County,FL,USA,,,,http://www.floridahealth.gov/diseases-and-conditions/COVID-19/index.html,4,,,,2020-03-14
,Nassau County,FL,USA,,,,http://www.floridahealth.gov/diseases-and-conditions/COVID-19/index.html,1,,,,2020-03-13
,Nassau County,FL,USA,,,,http://www.floridahealth.gov/diseases-and-conditions/COVID-19/index.html,1,,,,2020-03-14
,Collier County,FL,USA,,,,http://www.floridahealth.gov/diseases-and-conditions/COVID-19/index.html,3,,,,2020-03-13
,Collier County,FL,USA,,,,http://www.floridahealth.gov/diseases-and-conditions/COVID-19/index.html,3,,,,2020-03-14
,Pinellas County,FL,USA,,,,http://www.floridahealth.gov/diseases-and-conditions/COVID-19/index.html,2,,,,2020-03-13
,Pinellas County,FL,USA,,,,http://www.floridahealth.gov/diseases-and-conditions/COVID-19/index.html,2,,,,2020-03-14
,Pasco County,FL,USA,,,,http://www.floridahealth.gov/diseases-and-conditions/COVID-19/index.html,1,,,,2020-03-13
,Pasco County,FL,USA,,,,http://www.floridahealth.gov/diseases-and-conditions/COVID-19/index.html,1,,,,2020-03-14
,Miami-Dade County,FL,USA,,,,http://www.floridahealth.gov/diseases-and-conditions/COVID-19/index.html,2,,,,2020-03-13
,Miami-Dade County,FL,USA,,,,http://www.floridahealth.gov/diseases-and-conditions/COVID-19/index.html,8,,,,2020-03-14
,Seminole County,FL,USA,,,,http://www.floridahealth.gov/diseases-and-conditions/COVID-19/index.html,1,,,,2020-03-13
,Seminole County,FL,USA,,,,http://www.floridahealth.gov/diseases-and-conditions/COVID-19/index.html,1,,,,2020-03-14
,Palm Beach County,FL,USA,,,,http://www.floridahealth.gov/diseases-and-conditions/COVID-19/index.html,2,,,,2020-03-13
,Palm Beach County,FL,USA,,,,http://www.floridahealth.gov/diseases-and-conditions/COVID-19/index.html,5,,,,2020-03-14
,Sarasota County,FL,USA,,,,http://www.floridahealth.gov/diseases-and-conditions/COVID-19/index.html,2,,,,2020-03-13
,Sarasota County,FL,USA,,,,http://www.floridahealth.gov/diseases-and-conditions/COVID-19/index.html,1,,,,2020-03-14
,Alachua County,FL,USA,,,,http://www.floridahealth.gov/diseases-and-conditions/COVID-19/index.html,1,,,,2020-03-13
,Alachua County,FL,USA,,,,http://www.floridahealth.gov/diseases-and-conditions/COVID-19/index.html,1,,,,2020-03-14
,Duval County,FL,USA,,,,http://www.floridahealth.gov/diseases-and-conditions/COVID-19/index.html,1,,,,2020-03-13
,Duval County,FL,USA,,,,http://www.floridahealth.gov/diseases-and-conditions/COVID-19/index.html,1,,,,2020-03-14
,Clay County,FL,USA,,,,http://www.floridahealth.gov/diseases-and-conditions/COVID-19/index.html,1,,,,2020-03-13
,Clay County,FL,USA,,,,http://www.floridahealth.gov/diseases-and-conditions/COVID-19/index.html,1,,,,2020-03-14
,Westchester County,NY,USA,,,,https://www.health.ny.gov/diseases/communicable/coronavirus/,148,,,,2020-03-13
,Westchester County,NY,USA,,,,https://www.health.ny.gov/diseases/communicable/coronavirus/,172,,,,2020-03-14
,Nassau County,NY,USA,,,,https://www.health.ny.gov/diseases/communicable/coronavirus/,41,,,,2020-03-13
,Nassau County,NY,USA,,,,https://www.health.ny.gov/diseases/communicable/coronavirus/,68,,,,2020-03-14
,Suffolk County,NY,USA,,,,https://www.health.ny.gov/diseases/communicable/coronavirus/,20,,,,2020-03-13
,Suffolk County,NY,USA,,,,https://www.health.ny.gov/diseases/communicable/coronavirus/,33,,,,2020-03-14
,Rockland County,NY,USA,,,,https://www.health.ny.gov/diseases/communicable/coronavirus/,7,,,,2020-03-13
,Rockland County,NY,USA,,,,https://www.health.ny.gov/diseases/communicable/coronavirus/,10,,,,2020-03-14
,Saratoga County,NY,USA,,,,https://www.health.ny.gov/diseases/communicable/coronavirus/,3,,,,2020-03-13
,Ulster County,NY,USA,,,,https://www.health.ny.gov/diseases/communicable/coronavirus/,4,,,,2020-03-13
,Ulster County,NY,USA,,,,https://www.health.ny.gov/diseases/communicable/coronavirus/,5,,,,2020-03-14
,Orange County,NY,USA,,,,https://www.health.ny.gov/diseases/communicable/coronavirus/,1,,,,2020-03-13
,Orange County,NY,USA,,,,https://www.health.ny.gov/diseases/communicable/coronavirus/,6,,,,2020-03-14
,Albany County,NY,USA,,,,https://www.health.ny.gov/diseases/communicable/coronavirus/,1,,,,2020-03-13
,Albany County,NY,USA,,,,https://www.health.ny.gov/diseases/communicable/coronavirus/,3,,,,2020-03-14
,Monroe County,NY,USA,,,,https://www.health.ny.gov/diseases/communicable/coronavirus/,1,,,,2020-03-13
,Monroe County,NY,USA,,,,https://www.health.ny.gov/diseases/communicable/coronavirus/,2,,,,2020-03-14
,Dutchess County,NY,USA,,,,https://www.health.ny.gov/diseases/communicable/coronavirus/,1,,,,2020-03-13
,Dutchess County,NY,USA,,,,https://www.health.ny.gov/diseases/communicable/coronavirus/,3,,,,2020-03-14
,Delaware County,NY,USA,,,,https://www.health.ny.gov/diseases/communicable/coronavirus/,1,,,,2020-03-13
,Delaware County,NY,USA,,,,https://www.health.ny.gov/diseases/communicable/coronavirus/,1,,,,2020-03-14
,Herkimer County,NY,USA,,,,https://www.health.ny.gov/diseases/communicable/coronavirus/,1,,,,2020-03-13
,Herkimer County,NY,USA,,,,https://www.health.ny.gov/diseases/communicable/coronavirus/,1,,,,2020-03-14
,Broome County,NY,USA,,,,https://www.health.ny.gov/diseases/communicable/coronavirus/,1,,,,2020-03-13
,Broome County,NY,USA,,,,https://www.health.ny.gov/diseases/communicable/coronavirus/,1,,,,2020-03-14
,New York City,NY,USA,,,,https://www.health.ny.gov/diseases/communicable/coronavirus/,95,,,,2020-03-13
,New York City,NY,USA,,,,https://www.health.ny.gov/diseases/communicable/coronavirus/,213,,,,2020-03-14
,Clark County,WA,USA,,,,https://www.doh.wa.gov/Emergencies/Coronavirus,1,,,,2020-03-13
,Columbia County,WA,USA,,,,https://www.doh.wa.gov/Emergencies/Coronavirus,1,,,,2020-03-13
,Grant County,WA,USA,,,,https://www.doh.wa.gov/Emergencies/Coronavirus,1,1,,,2020-03-13
,Grays Harbor County,WA,USA,,,,https://www.doh.wa.gov/Emergencies/Coronavirus,1,,,,2020-03-13
,Island County,WA,USA,,,,https://www.doh.wa.gov/Emergencies/Coronavirus,3,,,,2020-03-13
,Jefferson County,WA,USA,,,,https://www.doh.wa.gov/Emergencies/Coronavirus,1,,,,2020-03-13
,King County,WA,USA,,,,https://www.doh.wa.gov/Emergencies/Coronavirus,328,32,,,2020-03-13
,Kitsap County,WA,USA,,,,https://www.doh.wa.gov/Emergencies/Coronavirus,3,,,,2020-03-13
,Kittitas County,WA,USA,,,,https://www.doh.wa.gov/Emergencies/Coronavirus,3,,,,2020-03-13
,Pierce County,WA,USA,,,,https://www.doh.wa.gov/Emergencies/Coronavirus,19,,,,2020-03-13
,Skagit County,WA,USA,,,,https://www.doh.wa.gov/Emergencies/Coronavirus,3,,,,2020-03-13
,Snohomish County,WA,USA,,,,https://www.doh.wa.gov/Emergencies/Coronavirus,133,4,,,2020-03-13
,Thurston County,WA,USA,,,,https://www.doh.wa.gov/Emergencies/Coronavirus,1,,,,2020-03-13
,Whatcom County,WA,USA,,,,https://www.doh.wa.gov/Emergencies/Coronavirus,1,,,,2020-03-13
,Yakima County,WA,USA,,,,https://www.doh.wa.gov/Emergencies/Coronavirus,2,,,,2020-03-13
,San Francisco County,CA,USA,883305,37.7901875,-122.4356335,https://www.sfdph.org/dph/alerts/coronavirus.asp,21,,,,2020-03-13
,San Francisco County,CA,USA,883305,37.7901875,-122.4356335,https://www.sfdph.org/dph/alerts/coronavirus.asp,28,,,,2020-03-14
,San Mateo County,CA,USA,769545,37.407824500000004,-122.30050299999999,https://www.smchealth.org/coronavirus,20,,,,2020-03-13
,San Mateo County,CA,USA,769545,37.407824500000004,-122.30050299999999,https://www.smchealth.org/coronavirus,26,,,,2020-03-14
,Sonoma County,CA,USA,499942,38.4810965,-122.946388,https://socoemergency.org/emergency/novel-coronavirus/novel-coronavirus-in-sonoma-county/,3,,,,2020-03-13
,Sonoma County,CA,USA,499942,38.4810965,-122.946388,https://socoemergency.org/emergency/novel-coronavirus/novel-coronavirus-in-sonoma-county/,3,,,,2020-03-14
,Santa Cruz County,CA,USA,274255,37.0683515,-121.94941800000001,http://www.santacruzhealth.org/HSAHome/HSADivisions/PublicHealth/CommunicableDiseaseControl/Coronavirus.aspx,7,,,,2020-03-13
,Santa Cruz County,CA,USA,274255,37.0683515,-121.94941800000001,http://www.santacruzhealth.org/HSAHome/HSADivisions/PublicHealth/CommunicableDiseaseControl/Coronavirus.aspx,7,,,,2020-03-14
,Solano County,CA,USA,,,,http://www.solanocounty.com/depts/ph/coronavirus.asp,6,,,,2020-03-13
,Solano County,CA,USA,,,,http://www.solanocounty.com/depts/ph/coronavirus.asp,6,,,,2020-03-14
,Contra Costa County,CA,USA,1150215,37.9092535,-121.983341,https://www.coronavirus.cchealth.org/,25,,,,2020-03-13
,Contra Costa County,CA,USA,1150215,37.9092535,-121.983341,https://www.coronavirus.cchealth.org/,25,,,,2020-03-14
,Stanislaus County,CA,USA,549815,37.606097500000004,-120.937052,http://www.schsa.org/PublicHealth/pages/corona-virus/,2,,,,2020-03-13
,Stanislaus County,CA,USA,549815,37.606097500000004,-120.937052,http://www.schsa.org/PublicHealth/pages/corona-virus/,2,,,,2020-03-14
,Stanislaus County,CA,USA,549815,37.606097500000004,-120.937052,http://www.schsa.org/PublicHealth/pages/corona-virus/,138862401280369680,,,,2020-08-27
,Yolo County,CA,USA,,,,https://www.yolocounty.org/health-human-services/adults/communicable-disease-investigation-and-control/novel-coronavirus-2019,2,,,,2020-03-13
,Yolo County,CA,USA,,,,https://www.yolocounty.org/health-human-services/adults/communicable-disease-investigation-and-control/novel-coronavirus-2019,2,,,,2020-03-14
,Sacramento County,CA,USA,1540975,38.377659,-121.444773,https://www.saccounty.net/COVID-19/Pages/default.aspx,17,1,,,2020-03-13
,Sacramento County,CA,USA,1540975,38.377659,-121.444773,https://www.saccounty.net/COVID-19/Pages/default.aspx,17,1,,,2020-03-14
,Fresno County,CA,USA,994400,36.7464615,-119.6396585,https://www.co.fresno.ca.us/departments/public-health/covid-19,1,,,,2020-03-13
,Fresno County,CA,USA,994400,36.7464615,-119.6396585,https://www.co.fresno.ca.us/departments/public-health/covid-19,1,,,,2020-03-14
,Madera County,CA,USA,,,,https://www.maderacounty.com/government/public-health/health-updates/corona-virus,1,,,,2020-03-13
,Madera County,CA,USA,,,,https://www.maderacounty.com/government/public-health/health-updates/corona-virus,1,,,,2020-03-14
,Placer County,CA,USA,393149,39.0142165,-120.7434505,https://www.placer.ca.gov/6448/Cases-in-Placer,7,1,,,2020-03-13
,Placer County,CA,USA,393149,39.0142165,-120.7434505,https://www.placer.ca.gov/6448/Cases-in-Placer,7,1,,,2020-03-14
,Shasta County,CA,USA,,,,https://www.co.shasta.ca.us/index/hhsa/health-safety/current-heath-concerns/coronavirus,1,,,,2020-03-13
,Shasta County,CA,USA,,,,https://www.co.shasta.ca.us/index/hhsa/health-safety/current-heath-concerns/coronavirus,1,,,,2020-03-14
,Los Angeles County,CA,USA,10105518,33.8115605,-118.29563049999999,http://www.publichealth.lacounty.gov/media/Coronavirus/,40,1,,,2020-03-13
,Los Angeles County,CA,USA,10105518,33.8115605,-118.29563049999999,http://www.publichealth.lacounty.gov/media/Coronavirus/,40,1,,,2020-03-14
,Orange County,CA,USA,3185968,33.66652,-117.76484500000001,http://www.ochealthinfo.com/phs/about/epidasmt/epi/dip/prevention/novel_coronavirus,36,,,,2020-03-13
,Orange County,CA,USA,3185968,33.66652,-117.76484500000001,http://www.ochealthinfo.com/phs/about/epidasmt/epi/dip/prevention/novel_coronavirus,13,,,,2020-03-14
,Riverside County,CA,USA,,,,https://www.rivcoph.org/coronavirus,8,,,,2020-03-13
,Riverside County,CA,USA,,,,https://www.rivcoph.org/coronavirus,1,,,,2020-03-14
,San Diego County,CA,USA,3343364,33.01959050000001,-116.83848499999999,https://www.sandiegocounty.gov/content/sdc/hhsa/programs/phs/community_epidemiology/dc/2019-nCoV/status.html,11,,,145,2020-03-13
,San Diego County,CA,USA,3343364,33.01959050000001,-116.83848499999999,https://www.sandiegocounty.gov/content/sdc/hhsa/programs/phs/community_epidemiology/dc/2019-nCoV/status.html,11,,,145,2020-03-14
,Ventura County,CA,USA,850967,34.058353,-119.1057185,https://www.ventura.org/covid19/,5,,,112,2020-03-13
,,AZ,USA,,,,https://www.cdc.gov/coronavirus/2019-ncov/map-data-cases.csv,9,,,,2020-03-14
,,AR,USA,,,,https://www.cdc.gov/coronavirus/2019-ncov/map-data-cases.csv,6,,,,2020-03-14
,,CA,USA,,,,https://www.cdc.gov/coronavirus/2019-ncov/map-data-cases.csv,224,,,,2020-03-14
,,CO,USA,,,,https://www.cdc.gov/coronavirus/2019-ncov/map-data-cases.csv,49,,,,2020-03-14
,,CT,USA,,,,https://www.cdc.gov/coronavirus/2019-ncov/map-data-cases.csv,7,,,,2020-03-14
,,DE,USA,,,,https://www.cdc.gov/coronavirus/2019-ncov/map-data-cases.csv,15,,,,2020-03-14
,,District of Columbia,USA,,,,https://www.cdc.gov/coronavirus/2019-ncov/map-data-cases.csv,15,,,,2020-03-14
,,FL,USA,,,,https://www.cdc.gov/coronavirus/2019-ncov/map-data-cases.csv,31,,,,2020-03-14
,,GA,USA,,,,https://www.cdc.gov/coronavirus/2019-ncov/map-data-cases.csv,45,,,,2020-03-14
,,HI,USA,,,,https://www.cdc.gov/coronavirus/2019-ncov/map-data-cases.csv,15,,,,2020-03-14
,,IL,USA,,,,https://www.cdc.gov/coronavirus/2019-ncov/map-data-cases.csv,32,,,,2020-03-14
,,IN,USA,,,,https://www.cdc.gov/coronavirus/2019-ncov/map-data-cases.csv,12,,,,2020-03-14
,,IA,USA,,,,https://www.cdc.gov/coronavirus/2019-ncov/map-data-cases.csv,16,,,,2020-03-14
,,KS,USA,,,,https://www.cdc.gov/coronavirus/2019-ncov/map-data-cases.csv,15,,,,2020-03-14
,,KY,USA,,,,https://www.cdc.gov/coronavirus/2019-ncov/map-data-cases.csv,11,,,,2020-03-14
,,LA,USA,,,,https://www.cdc.gov/coronavirus/2019-ncov/map-data-cases.csv,14,,,,2020-03-14
,,ME,USA,,,,https://www.cdc.gov/coronavirus/2019-ncov/map-data-cases.csv,15,,,,2020-03-14
,,MD,USA,,,,https://www.cdc.gov/coronavirus/2019-ncov/map-data-cases.csv,12,,,,2020-03-14
,,MA,USA,,,,https://www.cdc.gov/coronavirus/2019-ncov/map-data-cases.csv,108,,,,2020-03-14
,,MI,USA,,,,https://www.cdc.gov/coronavirus/2019-ncov/map-data-cases.csv,15,,,,2020-03-14
,,MN,USA,,,,https://www.cdc.gov/coronavirus/2019-ncov/map-data-cases.csv,10,,,,2020-03-14
,,MS,USA,,,,https://www.cdc.gov/coronavirus/2019-ncov/map-data-cases.csv,15,,,,2020-03-14
,,MO,USA,,,,https://www.cdc.gov/coronavirus/2019-ncov/map-data-cases.csv,15,,,,2020-03-14
,,MT,USA,,,,https://www.cdc.gov/coronavirus/2019-ncov/map-data-cases.csv,15,,,,2020-03-14
,,NE,USA,,,,https://www.cdc.gov/coronavirus/2019-ncov/map-data-cases.csv,10,,,,2020-03-14
,,NV,USA,,,,https://www.cdc.gov/coronavirus/2019-ncov/map-data-cases.csv,11,,,,2020-03-14
,,NH,USA,,,,https://www.cdc.gov/coronavirus/2019-ncov/map-data-cases.csv,6,,,,2020-03-14
,,NJ,USA,,,,https://www.cdc.gov/coronavirus/2019-ncov/map-data-cases.csv,29,,,,2020-03-14
,,NM,USA,,,,https://www.cdc.gov/coronavirus/2019-ncov/map-data-cases.csv,15,,,,2020-03-14
,,NY,USA,,,,https://www.cdc.gov/coronavirus/2019-ncov/map-data-cases.csv,325,,,,2020-03-14
,,NC,USA,,,,https://www.cdc.gov/coronavirus/2019-ncov/map-data-cases.csv,15,,,,2020-03-14
,,ND,USA,,,,https://www.cdc.gov/coronavirus/2019-ncov/map-data-cases.csv,15,,,,2020-03-14
,,OH,USA,,,,https://www.cdc.gov/coronavirus/2019-ncov/map-data-cases.csv,15,,,,2020-03-14
,,OK,USA,,,,https://www.cdc.gov/coronavirus/2019-ncov/map-data-cases.csv,15,,,,2020-03-14
,,OR,USA,,,,https://www.cdc.gov/coronavirus/2019-ncov/map-data-cases.csv,24,,,,2020-03-14
,,PA,USA,,,,https://www.cdc.gov/coronavirus/2019-ncov/map-data-cases.csv,23,,,,2020-03-14
,,RI,USA,,,,https://www.cdc.gov/coronavirus/2019-ncov/map-data-cases.csv,15,,,,2020-03-14
,,SC,USA,,,,https://www.cdc.gov/coronavirus/2019-ncov/map-data-cases.csv,12,,,,2020-03-14
,,SD,USA,,,,https://www.cdc.gov/coronavirus/2019-ncov/map-data-cases.csv,8,,,,2020-03-14
,,TN,USA,,,,https://www.cdc.gov/coronavirus/2019-ncov/map-data-cases.csv,18,,,,2020-03-14
,,TX,USA,,,,https://www.cdc.gov/coronavirus/2019-ncov/map-data-cases.csv,24,,,,2020-03-14
,,UT,USA,,,,https://www.cdc.gov/coronavirus/2019-ncov/map-data-cases.csv,15,,,,2020-03-14
,,VT,USA,,,,https://www.cdc.gov/coronavirus/2019-ncov/map-data-cases.csv,15,,,,2020-03-14
,,VA,USA,,,,https://www.cdc.gov/coronavirus/2019-ncov/map-data-cases.csv,29,,,,2020-03-14
,,WA,USA,,,,https://www.cdc.gov/coronavirus/2019-ncov/map-data-cases.csv,457,,,,2020-03-14
,,WI,USA,,,,https://www.cdc.gov/coronavirus/2019-ncov/map-data-cases.csv,8,,,,2020-03-14
,,WY,USA,,,,https://www.cdc.gov/coronavirus/2019-ncov/map-data-cases.csv,15,,,,2020-03-14
,Bexar County,TX,USA,,,,https://www.dshs.state.tx.us/news/updates.shtm,1,,,,2020-03-14
,El Paso County,TX,USA,,,,https://www.dshs.state.tx.us/news/updates.shtm,1,,,,2020-03-14
,Galveston County,TX,USA,,,,https://www.dshs.state.tx.us/news/updates.shtm,1,,,,2020-03-14
,Lavaca County,TX,USA,,,,https://www.dshs.state.tx.us/news/updates.shtm,1,,,,2020-03-14
,Orange County,FL,USA,,,,http://www.floridahealth.gov/diseases-and-conditions/COVID-19/index.html,1,,,,2020-03-14
,Osceola County,FL,USA,,,,http://www.floridahealth.gov/diseases-and-conditions/COVID-19/index.html,1,,,,2020-03-14
,Saratoga,NY,USA,,,,https://www.health.ny.gov/diseases/communicable/coronavirus/,3,,,,2020-03-14
,Schenectady,NY,USA,,,,https://www.health.ny.gov/diseases/communicable/coronavirus/,1,,,,2020-03-14
,Tioga County,NY,USA,,,,https://www.health.ny.gov/diseases/communicable/coronavirus/,1,,,,2020-03-14
,Tompkins County,NY,USA,,,,https://www.health.ny.gov/diseases/communicable/coronavirus/,1,,,,2020-03-14
,Dane County,WI,USA,,,,https://www.dhs.wisconsin.gov/outbreaks/index.htm,5,,,,2020-03-14
,Fond du Lac County,WI,USA,,,,https://www.dhs.wisconsin.gov/outbreaks/index.htm,6,,,,2020-03-14
,Milwaukee County,WI,USA,,,,https://www.dhs.wisconsin.gov/outbreaks/index.htm,2,,,,2020-03-14
,Pierce County,WI,USA,,,,https://www.dhs.wisconsin.gov/outbreaks/index.htm,1,,,,2020-03-14
,Racine County,WI,USA,,,,https://www.dhs.wisconsin.gov/outbreaks/index.htm,1,,,,2020-03-14
,Sheboygan County,WI,USA,,,,https://www.dhs.wisconsin.gov/outbreaks/index.htm,3,,,,2020-03-14
,Waukesha County,WI,USA,,,,https://www.dhs.wisconsin.gov/outbreaks/index.htm,1,,,,2020-03-14
,Beadle County,SD,USA,,,,https://doh.sd.gov/news/Coronavirus.aspx#SD,1,,,,2020-03-14
,Bon Homme County,SD,USA,,,,https://doh.sd.gov/news/Coronavirus.aspx#SD,1,,,,2020-03-14
,Charles Mix County,SD,USA,,,,https://doh.sd.gov/news/Coronavirus.aspx#SD,1,,,,2020-03-14
,Davison County,SD,USA,,,,https://doh.sd.gov/news/Coronavirus.aspx#SD,1,,,,2020-03-14
,McCook County,SD,USA,,,,https://doh.sd.gov/news/Coronavirus.aspx#SD,1,,,,2020-03-14
,Minnehaha County,SD,USA,,,,https://doh.sd.gov/news/Coronavirus.aspx#SD,3,,,,2020-03-14
,Pennington County,SD,USA,,,,https://doh.sd.gov/news/Coronavirus.aspx#SD,1,,,,2020-03-14
,Davis County,UT,USA,,,,https://coronavirus.utah.gov/latest/,1,,,,2020-03-14
,Salt Lake County,UT,USA,,,,https://coronavirus.utah.gov/latest/,5,,,,2020-03-14
,Summit County,UT,USA,,,,https://coronavirus.utah.gov/latest/,2,,,,2020-03-14
,Weber-Morgan County,UT,USA,,,,https://coronavirus.utah.gov/latest/,1,,,,2020-03-14
,Allegheny County,PA,USA,,,,https://www.health.pa.gov/topics/disease/Pages/Coronavirus.aspx,2,,,,2020-03-14
,Bucks County,PA,USA,,,,https://www.health.pa.gov/topics/disease/Pages/Coronavirus.aspx,3,,,,2020-03-14
,Chester County,PA,USA,,,,https://www.health.pa.gov/topics/disease/Pages/Coronavirus.aspx,2,,,,2020-03-14
,Cumberland County,PA,USA,,,,https://www.health.pa.gov/topics/disease/Pages/Coronavirus.aspx,3,,,,2020-03-14
,Delaware County,PA,USA,,,,https://www.health.pa.gov/topics/disease/Pages/Coronavirus.aspx,6,,,,2020-03-14
,Monroe County,PA,USA,,,,https://www.health.pa.gov/topics/disease/Pages/Coronavirus.aspx,3,,,,2020-03-14
,Montgomery County,PA,USA,,,,https://www.health.pa.gov/topics/disease/Pages/Coronavirus.aspx,20,,,,2020-03-14
,Northampton County,PA,USA,,,,https://www.health.pa.gov/topics/disease/Pages/Coronavirus.aspx,1,,,,2020-03-14
,Philadelphia County,PA,USA,,,,https://www.health.pa.gov/topics/disease/Pages/Coronavirus.aspx,4,,,,2020-03-14
,Pike County,PA,USA,,,,https://www.health.pa.gov/topics/disease/Pages/Coronavirus.aspx,1,,,,2020-03-14
,Washington County,PA,USA,,,,https://www.health.pa.gov/topics/disease/Pages/Coronavirus.aspx,1,,,,2020-03-14
,Wayne County,PA,USA,,,,https://www.health.pa.gov/topics/disease/Pages/Coronavirus.aspx,1,,,,2020-03-14
